Time,Own1.OwnIdent.Parameters.Name,Own1.OwnPlatform.StateVector.PresentPos.Latitude,Own1.OwnPlatform.StateVector.PresentPos.Longitude,Own1.OwnPlatform.StateVector.PresentPos.AltitudeSea,Own1.OwnPlatform.StateVector.PresentPos.AltitudeGround,Own1.OwnPlatform.StateVector.PresentPos.Heading,Own1.OwnPlatform.StateVector.PresentPos.Pitch,Own1.OwnPlatform.StateVector.PresentPos.Roll,Own1.OwnPlatform.StateVector.DirectionAngles.TrackAngle,Own1.OwnPlatform.StateVector.IncidenceAngles.Alpha,Own1.OwnPlatform.StateVector.Velocity.TAS,Own1.OwnPlatform.StateVector.Velocity.CAS,Own1.OwnPlatform.StateVector.Velocity.Mach,Own1.OwnPlatform.StateVector.Velocity.North,Own1.OwnPlatform.StateVector.Velocity.East,Own1.OwnPlatform.StateVector.Velocity.Down,timeDifferences,North,East,Down,CAS,Heading,Pitch,Roll
msec,N/A,rad,rad,ft,ft,rad,rad,rad,rad,rad,ft/sec,ft/sec,N/A,ft/sec,ft/sec,ft/sec,msec,m/sec,m/sec,m/sec,k/sec,deg,deg,deg
507444,Own1,0.547,0.605,16013.776,15566.649,4.697,-0.013,-0.5,-1.567,0.045,574.185,450.066,0.539,2.133,-573.368,30.541,100,0,0,0,266.6574941,269.1182764,-0.744845134,-28.64788976
507544,Own1,0.547,0.605,16011.236,15564.621,4.693,-0.011,-0.501,-1.57,0.046,574.137,450.043,0.539,0.621,-573.331,30.41,100,65.01463058,-17476.46915,930.9009998,266.643867,268.8890933,-0.630253575,-28.70518554
507644,Own1,0.547,0.605,16008.206,15562.139,4.689,-0.009,-0.501,-1.573,0.049,574.07,450.017,0.539,-1.24,-573.276,30.172,100,83.94294075,-34951.81053,1857.809071,266.6284623,268.6599101,-0.515662016,-28.70518554
507744,Own1,0.547,0.605,16004.709,15559.202,4.683,-0.004,-0.502,-1.577,0.053,573.971,449.959,0.539,-3.501,-573.19,29.733,100,46.14728115,-52425.47549,2777.462814,266.5940982,268.3161355,-0.229183118,-28.76248132
507844,Own1,0.547,0.605,16001.763,15556.806,4.677,0.002,-0.501,-1.58,0.058,573.865,449.887,0.539,-5.544,-573.097,29.165,90,-60.56449646,-69896.51914,3683.735674,266.5514392,267.9723608,0.114591559,-28.70518554
507934,Own1,0.547,0.605,15999.358,15554.998,4.671,0.006,-0.501,-1.584,0.063,573.759,449.826,0.539,-7.335,-573.002,28.527,109,-212.6493538,-85617.90722,4483.799683,266.5152976,267.6285861,0.343774677,-28.70518554
508043,Own1,0.547,0.605,15996.552,15552.778,4.665,0.013,-0.501,-1.588,0.068,573.606,449.717,0.539,-9.594,-572.864,27.558,100,-456.3444891,-104655.0988,5431.569434,266.4507167,267.2848114,0.744845134,-28.70518554
508143,Own1,0.547,0.605,15993.853,15550.797,4.659,0.02,-0.5,-1.592,0.072,573.395,449.595,0.539,-12.368,-572.664,26.165,100,-748.7731651,-122116.2058,6271.547488,266.3784335,266.9410368,1.14591559,-28.64788976
508243,Own1,0.547,0.605,15990.866,15548.727,4.652,0.025,-0.5,-1.597,0.076,573.19,449.426,0.538,-14.839,-572.462,24.791,92,-1125.754389,-139571.2168,7069.066386,266.2783035,266.5399663,1.432394488,-28.64788976
508335,Own1,0.547,0.605,15988.851,15547.427,4.647,0.028,-0.501,-1.6,0.078,573.006,449.29,0.538,-16.941,-572.271,23.566,102,-1541.868752,-155624.1624,7764.254145,266.1977255,266.2534874,1.604281826,-28.70518554
508437,Own1,0.547,0.605,15986.57,15546.239,4.642,0.032,-0.502,-1.605,0.079,572.773,449.12,0.538,-19.495,-572.017,22.04,100,-2068.56407,-173416.0552,8496.920568,266.097003,265.9670085,1.833464944,-28.76248132
508537,Own1,0.547,0.605,15984.444,15545.433,4.638,0.034,-0.504,-1.609,0.079,572.528,448.944,0.538,-22.493,-571.687,20.244,99,-2662.778895,-190851.3454,9168.707937,265.9927256,265.7378254,1.948056503,-28.87707287
508636,Own1,0.547,0.605,15982.155,15543.987,4.633,0.036,-0.508,-1.615,0.078,572.235,448.726,0.537,-25.055,-571.38,18.747,100,-3341.517922,-208102.3247,9779.582114,265.8635638,265.4513465,2.062648062,-29.10625599
508736,Own1,0.547,0.605,15980.643,15542.999,4.629,0.037,-0.512,-1.618,0.077,572.023,448.564,0.537,-27.174,-571.108,17.559,100,-4105.203609,-225518.1989,10350.99762,265.7675812,265.2221634,2.119943842,-29.33543911
508836,Own1,0.547,0.605,15978.955,15541.794,4.625,0.038,-0.517,-1.623,0.075,571.767,448.371,0.537,-29.697,-570.765,16.218,100,-4933.477201,-242925.7824,10886.20245,265.6532315,264.9929802,2.177239621,-29.62191801
508936,Own1,0.547,0.605,15977.396,15540.844,4.621,0.039,-0.523,-1.627,0.074,571.509,448.171,0.537,-32.202,-570.405,14.968,99,-5838.652768,-260322.9112,11380.5331,265.5347345,264.7637971,2.234535401,-29.96569269
509035,Own1,0.547,0.605,15975.73,15539.798,4.616,0.041,-0.53,-1.632,0.073,571.205,447.946,0.536,-35.114,-569.963,13.6,100,-6810.366374,-277535.2054,11832.20099,265.4014253,264.4773182,2.34912696,-30.36676314
509135,Own1,0.547,0.605,15974.636,15538.776,4.612,0.042,-0.534,-1.636,0.073,570.986,447.776,0.536,-37.194,-569.633,12.666,100,-7880.654109,-294907.8889,12246.73403,265.3007028,264.2481351,2.40642274,-30.59594626
509235,Own1,0.547,0.605,15973.425,15537.565,4.608,0.043,-0.539,-1.64,0.072,570.72,447.565,0.536,-39.701,-569.22,11.567,100,-9014.341014,-312270.5139,12632.7984,265.1756884,264.018952,2.463718519,-30.88242516
509335,Own1,0.547,0.605,15972.322,15536.449,4.603,0.044,-0.544,-1.645,0.072,570.45,447.358,0.536,-42.221,-568.789,10.489,100,-10224.44221,-329620.5505,12985.36485,265.0530439,263.7324731,2.521014299,-31.16890406
509435,Own1,0.547,0.605,15971.326,15535.441,4.599,0.046,-0.549,-1.649,0.071,570.177,447.148,0.535,-44.749,-568.34,9.441,100,-11511.35394,-346957.45,13305.07346,264.928622,263.50329,2.635605858,-31.45538295
509535,Own1,0.547,0.605,15970.433,15534.536,4.594,0.047,-0.553,-1.654,0.071,569.901,446.934,0.535,-47.279,-567.874,8.426,100,-12875.32004,-364280.6639,13592.83864,264.8018301,263.2168111,2.692901637,-31.68456607
509635,Own1,0.547,0.605,15969.639,15533.989,4.59,0.048,-0.556,-1.658,0.07,569.624,446.713,0.535,-49.805,-567.394,7.449,99,-14316.40149,-381589.6739,13849.66624,264.6708909,262.987628,2.750197417,-31.85645341
509734,Own1,0.547,0.605,15968.942,15533.859,4.586,0.049,-0.56,-1.663,0.069,569.345,446.496,0.535,-52.324,-566.898,6.511,100,-15819.2956,-398711.1095,14074.44404,264.5423216,262.7584448,2.807493196,-32.08563653
509834,Own1,0.547,0.605,15968.336,15533.901,4.582,0.049,-0.563,-1.667,0.068,569.066,446.277,0.534,-54.831,-566.391,5.617,100,-17414.15051,-415990.3706,14272.90173,264.4125673,262.5292617,2.807493196,-32.25752387
509934,Own1,0.547,0.605,15967.817,15533.911,4.578,0.05,-0.566,-1.672,0.067,568.787,446.055,0.534,-57.322,-565.872,4.772,100,-19085.41971,-433254.1782,14444.10997,264.2810355,262.3000786,2.864788976,-32.4294112
510034,Own1,0.547,0.605,15967.379,15534,4.574,0.05,-0.569,-1.676,0.066,568.51,445.835,0.534,-59.792,-565.343,3.985,100,-20832.61552,-450502.1665,14589.5623,264.1506888,262.0708955,2.864788976,-32.60129854
510134,Own1,0.547,0.605,15967.017,15534.053,4.57,0.05,-0.572,-1.681,0.065,568.235,445.615,0.534,-62.235,-564.807,3.262,100,-22655.09784,-467734.0307,14711.02658,264.020342,261.8417124,2.864788976,-32.77318588
510234,Own1,0.547,0.605,15966.769,15534.356,4.567,0.05,-0.574,-1.684,0.063,568.007,445.435,0.533,-64.649,-564.265,2.607,99,-24552.04371,-484949.5574,14810.45355,263.9136946,261.669825,2.864788976,-32.88777744
510333,Own1,0.547,0.605,15966.494,15534.687,4.563,0.05,-0.577,-1.689,0.062,567.692,445.183,0.533,-67.032,-563.717,2.019,100,-26502.86394,-501976.5737,14889.12125,263.7643883,261.4406419,2.864788976,-33.05966478
510433,Own1,0.547,0.605,15966.319,15534.97,4.559,0.049,-0.578,-1.693,0.06,567.424,444.968,0.533,-69.381,-563.164,1.496,100,-28546.02414,-519158.8768,14950.66112,263.637004,261.2114588,2.807493196,-33.11696056
510533,Own1,0.547,0.605,15966.176,15535.43,4.555,0.049,-0.579,-1.698,0.059,567.115,444.721,0.533,-72.071,-562.517,0.972,110,-30660.78274,-536324.3243,14996.25975,263.4906601,260.9822757,2.807493196,-33.17425634
510643,Own1,0.547,0.605,15966.108,15535.813,4.553,0.048,-0.579,-1.702,0.057,566.897,444.546,0.532,-73.956,-562.052,0.653,99,-33077.20861,-555184.6236,15028.84937,263.3869752,260.8676841,2.750197417,-33.17425634
510742,Own1,0.547,0.605,15966.06,15536.175,4.549,0.048,-0.579,-1.706,0.056,566.639,444.338,0.532,-76.18,-561.495,0.329,100,-35308.87284,-572144.8613,15048.55401,263.2637383,260.638501,2.750197417,-33.17425634
510842,Own1,0.547,0.605,15966.04,15536.239,4.546,0.047,-0.579,-1.71,0.055,566.383,444.132,0.532,-78.364,-560.936,0.063,100,-37630.86747,-589259.437,15058.58205,263.1416863,260.4666137,2.692901637,-33.17425634
510942,Own1,0.547,0.605,15966.048,15536.257,4.542,0.046,-0.579,-1.714,0.053,566.088,443.894,0.532,-80.868,-560.282,-0.186,100,-40019.43124,-606356.9742,15060.50232,263.0006748,260.2374305,2.635605858,-33.17425634
511042,Own1,0.547,0.605,15966.07,15536.28,4.539,0.046,-0.579,-1.717,0.052,565.879,443.725,0.531,-82.632,-559.813,-0.328,100,-42484.31785,-623434.5772,15054.83297,262.9005448,260.0655432,2.635605858,-33.17425634
511142,Own1,0.547,0.605,15966.11,15536.32,4.536,0.045,-0.579,-1.721,0.052,565.63,443.525,0.531,-84.724,-559.249,-0.465,100,-45002.97184,-640497.885,15044.83541,262.7820477,259.8936559,2.578310078,-33.17425634
511242,Own1,0.547,0.605,15966.171,15536.381,4.532,0.045,-0.578,-1.726,0.051,565.344,443.293,0.531,-87.134,-558.589,-0.583,99,-47585.39076,-657544.0018,15030.66203,262.6445911,259.6644728,2.578310078,-33.11696056
511341,Own1,0.547,0.605,15966.223,15536.454,4.529,0.045,-0.578,-1.729,0.05,565.141,443.129,0.531,-88.837,-558.115,-0.643,100,-50214.70861,-674399.7415,15013.06968,262.5474235,259.4925854,2.578310078,-33.11696056
511441,Own1,0.547,0.605,15966.289,15536.874,4.526,0.044,-0.578,-1.732,0.05,564.9,442.935,0.531,-90.863,-557.545,-0.691,100,-52922.49329,-691411.2936,14993.4708,262.4324814,259.3206981,2.521014299,-33.11696056
511541,Own1,0.547,0.605,15966.36,15537.398,4.523,0.044,-0.577,-1.736,0.049,564.661,442.741,0.53,-92.876,-556.97,-0.724,100,-55692.03121,-708405.4718,14972.40886,262.3175392,259.1488107,2.521014299,-33.05966478
511641,Own1,0.547,0.605,15966.447,15538.178,4.518,0.044,-0.577,-1.74,0.049,564.383,442.516,0.53,-95.214,-556.293,-0.753,100,-58522.92612,-725382.1239,14950.34108,262.18423,258.8623318,2.521014299,-33.05966478
511741,Own1,0.547,0.605,15966.51,15538.76,4.515,0.044,-0.577,-1.743,0.049,564.184,442.355,0.53,-96.881,-555.803,-0.773,99,-61425.08413,-742338.1407,14927.38936,262.0888399,258.6904445,2.521014299,-33.05966478
511840,Own1,0.547,0.605,15966.589,15539.384,4.512,0.044,-0.576,-1.747,0.049,563.945,442.162,0.53,-98.879,-555.209,-0.798,100,-64348.52323,-759109.8113,14904.06364,261.9744902,258.5185572,2.521014299,-33.002369
511940,Own1,0.547,0.605,15966.67,15539.98,4.508,0.044,-0.576,-1.751,0.049,563.706,441.969,0.529,-100.872,-554.607,-0.822,100,-67362.39179,-776032.7874,14879.74031,261.8601406,258.289374,2.521014299,-33.002369
512040,Own1,0.547,0.605,15966.753,15540.647,4.504,0.044,-0.576,-1.754,0.049,563.467,441.775,0.529,-103.191,-553.897,-0.845,100,-70437.00774,-792937.4144,14854.68544,261.7451984,258.0601909,2.521014299,-33.002369
512140,Own1,0.547,0.605,15966.838,15541.383,4.501,0.044,-0.576,-1.758,0.049,563.228,441.582,0.529,-104.84,-553.385,-0.856,100,-73582.30767,-809820.4002,14828.92953,261.6308487,257.8883036,2.521014299,-33.002369
512240,Own1,0.547,0.605,15966.924,15541.98,4.497,0.045,-0.575,-1.762,0.05,562.989,441.389,0.529,-106.817,-552.763,-0.87,99,-76777.86973,-826687.7801,14802.83833,261.5164991,257.6591205,2.578310078,-32.94507322
512339,Own1,0.547,0.605,15967.013,15542.582,4.493,0.045,-0.575,-1.765,0.05,562.749,441.194,0.529,-108.802,-552.13,-0.904,104,-80001.13326,-843367.717,14776.58559,261.4009644,257.4299374,2.578310078,-32.94507322
512443,Own1,0.547,0.605,15967.106,15543.279,4.489,0.046,-0.575,-1.769,0.051,562.506,440.997,0.528,-110.802,-551.484,-0.966,100,-83450.11156,-860870.0091,14747.92916,261.2842448,257.2007542,2.635605858,-32.94507322
512543,Own1,0.547,0.605,15967.206,15543.861,4.485,0.046,-0.575,-1.773,0.051,562.261,440.799,0.528,-112.808,-550.827,-1.045,100,-86827.39759,-877679.4459,14718.48513,261.1669327,256.9715711,2.635605858,-32.94507322
512643,Own1,0.547,0.605,15967.315,15544.072,4.481,0.046,-0.574,-1.777,0.051,562.016,440.601,0.528,-114.809,-550.163,-1.121,99,-90265.82724,-894468.857,14686.63314,261.0496206,256.742388,2.635605858,-32.88777744
512742,Own1,0.547,0.605,15967.43,15544.2,4.478,0.046,-0.574,-1.78,0.051,561.771,440.403,0.528,-116.796,-549.495,-1.181,100,-93730.2539,-911070.3374,14652.80633,260.9323086,256.5705007,2.635605858,-32.88777744
512842,Own1,0.547,0.605,15967.55,15544.322,4.474,0.046,-0.574,-1.784,0.05,561.527,440.205,0.527,-118.767,-548.823,-1.221,93,-97290.23927,-927819.1487,14616.80901,260.8149965,256.3413175,2.635605858,-32.88777744
512935,Own1,0.547,0.605,15967.674,15544.445,4.471,0.046,-0.574,-1.788,0.05,561.284,440.009,0.527,-120.727,-548.146,-1.247,100,-100656.8971,-943376.4941,14582.19763,260.6988693,256.1694302,2.635605858,-32.88777744
513035,Own1,0.547,0.605,15967.8,15544.571,4.467,0.046,-0.575,-1.791,0.05,561.042,439.812,0.527,-122.682,-547.463,-1.269,99,-104336.7008,-960084.1874,14544.18861,260.5821497,255.9402471,2.635605858,-32.94507322
513134,Own1,0.547,0.605,15967.928,15544.699,4.463,0.046,-0.575,-1.795,0.05,560.799,439.615,0.527,-124.637,-546.772,-1.291,100,-108038.6997,-976604.1938,14505.89582,260.4654301,255.711064,2.635605858,-32.94507322
513234,Own1,0.547,0.605,15968.058,15544.849,4.459,0.046,-0.577,-1.799,0.051,560.555,439.418,0.526,-126.596,-546.071,-1.315,100,-111837.6817,-993270.007,14466.54566,260.3487105,255.4818808,2.635605858,-33.05966478
513334,Own1,0.547,0.605,15968.191,15545.268,4.455,0.046,-0.578,-1.802,0.051,560.311,439.219,0.526,-128.559,-545.361,-1.341,100,-115696.3747,-1009914.453,14426.46397,260.2308059,255.2526977,2.635605858,-33.11696056
513434,Own1,0.547,0.605,15968.326,15545.959,4.452,0.047,-0.58,-1.806,0.051,560.066,439.021,0.526,-130.526,-544.642,-1.367,100,-119614.9006,-1026537.259,14385.5898,260.1134939,255.0808104,2.692901637,-33.23155212
513534,Own1,0.547,0.605,15968.464,15547.018,4.448,0.047,-0.582,-1.81,0.051,559.82,438.823,0.526,-132.497,-543.913,-1.391,100,-123593.3815,-1043138.149,14343.92313,259.9961818,254.8516273,2.692901637,-33.34614368
513634,Own1,0.547,0.605,15968.604,15548.241,4.444,0.047,-0.584,-1.813,0.051,559.575,438.623,0.526,-134.473,-543.175,-1.41,99,-127631.9392,-1059716.819,14301.52493,259.8776847,254.6224442,2.692901637,-33.46073524
513733,Own1,0.547,0.605,15968.722,15549.203,4.44,0.047,-0.586,-1.817,0.051,559.329,438.457,0.525,-136.451,-542.428,-1.424,100,-131689.7382,-1076107.432,14258.97738,259.7793321,254.393261,2.692901637,-33.57532679
513833,Own1,0.547,0.605,15968.889,15550.382,4.436,0.047,-0.589,-1.821,0.051,559.082,438.225,0.525,-138.434,-541.671,-1.432,100,-135848.8152,-1092640.839,14215.57334,259.6418755,254.1640779,2.692901637,-33.74721413
513933,Own1,0.547,0.605,15969.032,15551.534,4.432,0.047,-0.591,-1.825,0.051,558.836,438.025,0.525,-140.42,-540.905,-1.433,100,-140068.3349,-1109151.172,14171.92545,259.5233785,253.9348948,2.692901637,-33.86180569
514033,Own1,0.547,0.605,15969.151,15552.316,4.429,0.047,-0.593,-1.828,0.051,558.631,437.858,0.525,-142.077,-540.26,-1.429,100,-144348.3885,-1125638.157,14128.24707,259.4244334,253.7630075,2.692901637,-33.97639725
514133,Own1,0.547,0.605,15969.294,15552.606,4.425,0.047,-0.596,-1.832,0.051,558.384,437.659,0.524,-144.401,-539.346,-1.416,99,-148678.9481,-1142105.482,14084.69062,259.3065289,253.5338243,2.692901637,-34.14828459
514232,Own1,0.547,0.605,15969.458,15552.789,4.42,0.047,-0.598,-1.836,0.051,558.097,437.426,0.524,-146.396,-538.553,-1.396,100,-153036.3302,-1158380.553,14041.96202,259.1684798,253.2473454,2.692901637,-34.26287615
514332,Own1,0.547,0.605,15969.596,15552.929,4.416,0.047,-0.601,-1.84,0.051,557.851,437.227,0.524,-148.393,-537.75,-1.369,100,-157498.5345,-1174795.848,13999.41142,259.0505752,253.0181623,2.692901637,-34.43476349
514432,Own1,0.547,0.605,15969.709,15553.043,4.413,0.047,-0.603,-1.843,0.052,557.645,437.06,0.524,-150.061,-537.074,-1.342,100,-162021.6081,-1191186.667,13957.6838,258.9516302,252.846275,2.692901637,-34.54935505
514532,Own1,0.547,0.605,15969.842,15553.181,4.409,0.047,-0.605,-1.847,0.052,557.399,436.861,0.523,-152.067,-536.253,-1.307,100,-166595.523,-1207556.882,13916.77914,258.8337256,252.6170919,2.692901637,-34.66394661
514632,Own1,0.547,0.605,15969.992,15553.767,4.404,0.047,-0.608,-1.852,0.052,557.11,436.627,0.523,-154.418,-535.281,-1.269,100,-171230.5816,-1223902.072,13876.94129,258.695084,252.330613,2.692901637,-34.83583394
514732,Own1,0.547,0.605,15970.117,15554.48,4.4,0.047,-0.61,-1.856,0.052,556.862,436.427,0.523,-156.442,-534.435,-1.241,99,-175937.2994,-1240217.635,13838.2617,258.576587,252.1014299,2.692901637,-34.9504255
514831,Own1,0.547,0.605,15970.22,15554.832,4.397,0.047,-0.611,-1.859,0.053,556.655,436.258,0.523,-158.137,-533.719,-1.225,100,-180658.0255,-1256344.514,13800.81383,258.4764569,251.9295425,2.692901637,-35.00772128
514931,Own1,0.547,0.605,15970.342,15555.112,4.392,0.048,-0.613,-1.863,0.053,556.406,436.056,0.523,-160.181,-532.849,-1.215,100,-185478.0999,-1272612.467,13763.47537,258.3567749,251.6430636,2.750197417,-35.12231284
515031,Own1,0.547,0.605,15970.484,15555.425,4.387,0.048,-0.615,-1.867,0.054,556.113,435.82,0.522,-162.579,-531.817,-1.216,100,-190360.4761,-1288853.902,13726.44172,258.2169484,251.3565847,2.750197417,-35.2369044
515131,Own1,0.547,0.605,15970.606,15555.709,4.383,0.048,-0.616,-1.872,0.054,555.862,435.617,0.522,-164.644,-530.917,-1.227,110,-195315.9443,-1305063.882,13689.37759,258.0966739,251.1274016,2.750197417,-35.29420018
515241,Own1,0.547,0.605,15970.709,15555.938,4.379,0.048,-0.617,-1.875,0.054,555.651,435.446,0.522,-166.372,-530.158,-1.243,100,-200836.1954,-1322864.683,13648.23823,257.9953589,250.8982185,2.750197417,-35.35149596
515341,Own1,0.547,0.605,15970.855,15556.219,4.374,0.049,-0.619,-1.88,0.055,555.356,435.207,0.522,-168.798,-529.08,-1.273,99,-205907.2757,-1339024.096,13610.35113,257.8537549,250.6117396,2.807493196,-35.46608752
515440,Own1,0.547,0.605,15970.984,15556.483,4.37,0.049,-0.62,-1.884,0.055,555.102,435.001,0.521,-170.884,-528.143,-1.307,100,-211000.851,-1354989.385,13571.93764,257.7317029,250.3825565,2.807493196,-35.5233833
515540,Own1,0.547,0.605,15971.117,15556.788,4.366,0.049,-0.621,-1.888,0.055,554.846,434.795,0.521,-172.976,-527.193,-1.346,100,-216209.4587,-1371087.379,13532.09979,257.6096509,250.1533734,2.807493196,-35.58067908
515640,Own1,0.547,0.605,15971.231,15557.272,4.362,0.05,-0.622,-1.891,0.056,554.633,434.622,0.521,-174.723,-526.392,-1.383,100,-221481.8313,-1387156.417,13491.07321,257.507151,249.9241902,2.864788976,-35.63797486
515740,Own1,0.547,0.605,15971.395,15557.992,4.357,0.05,-0.623,-1.896,0.056,554.333,434.38,0.521,-177.169,-525.257,-1.436,100,-226807.4531,-1403201.04,13448.91886,257.3637695,249.6377113,2.864788976,-35.69527064
515840,Own1,0.547,0.605,15971.541,15558.712,4.353,0.05,-0.624,-1.9,0.056,554.076,434.172,0.52,-179.263,-524.274,-1.478,100,-232207.6298,-1419211.068,13405.14905,257.2405326,249.4085282,2.864788976,-35.75256642
515940,Own1,0.547,0.605,15971.665,15559.39,4.349,0.05,-0.625,-1.904,0.056,553.862,433.998,0.52,-181.007,-523.448,-1.512,99,-237671.6325,-1435191.134,13360.09906,257.1374401,249.1793451,2.864788976,-35.8098622
516039,Own1,0.547,0.605,15971.818,15560.138,4.345,0.05,-0.626,-1.908,0.056,553.605,433.79,0.52,-183.093,-522.45,-1.543,100,-243133.6214,-1450986.474,13314.4736,257.0142032,248.950162,2.864788976,-35.86715798
516139,Own1,0.547,0.605,15971.999,15560.948,4.34,0.049,-0.63,-1.913,0.055,553.308,433.55,0.52,-185.514,-521.279,-1.553,100,-248714.3639,-1466910.944,13267.44239,256.8720067,248.6636831,2.807493196,-36.09634109
516239,Own1,0.547,0.605,15972.153,15561.713,4.336,0.049,-0.636,-1.917,0.055,553.055,433.345,0.519,-187.583,-520.269,-1.525,100,-254368.8994,-1482799.721,13220.10638,256.7505472,248.4345,2.807493196,-36.44011577
516339,Own1,0.547,0.605,15972.278,15562.206,4.333,0.048,-0.641,-1.92,0.055,552.844,433.174,0.519,-189.308,-519.42,-1.474,100,-260086.4987,-1498657.713,13173.62381,256.6492322,248.2626126,2.750197417,-36.72659467
516439,Own1,0.547,0.605,15972.422,15562.565,4.328,0.048,-0.648,-1.924,0.055,552.591,432.969,0.519,-191.385,-518.389,-1.386,100,-265856.6767,-1514489.827,13128.69574,256.5277727,247.9761337,2.750197417,-37.12766512
516539,Own1,0.547,0.605,15972.576,15562.965,4.323,0.048,-0.656,-1.929,0.055,552.296,432.73,0.519,-193.828,-517.165,-1.265,99,-271690.1625,-1530290.516,13086.44995,256.3861688,247.6896548,2.750197417,-37.58603136
516638,Own1,0.547,0.605,15972.698,15563.341,4.318,0.048,-0.662,-1.934,0.055,552.042,432.525,0.518,-195.947,-516.095,-1.159,100,-277539.0322,-1545896.263,13048.27786,256.2647093,247.4031759,2.750197417,-37.92980604
516738,Own1,0.547,0.605,15972.791,15563.623,4.314,0.048,-0.666,-1.937,0.056,551.83,432.353,0.518,-197.732,-515.187,-1.076,100,-283511.5694,-1561627.03,13012.95111,256.1628018,247.1739928,2.750197417,-38.15898916
516838,Own1,0.547,0.605,15972.894,15563.896,4.309,0.048,-0.671,-1.942,0.057,551.574,432.147,0.518,-199.898,-514.076,-0.986,100,-289538.5141,-1577330.121,12980.15423,256.0407498,246.8875139,2.750197417,-38.44546805
516938,Own1,0.547,0.605,15972.988,15564.159,4.304,0.049,-0.676,-1.946,0.057,551.317,431.938,0.518,-202.457,-512.751,-0.896,100,-295631.4792,-1592999.348,12950.10059,255.9169204,246.601035,2.807493196,-38.73194695
517038,Own1,0.547,0.605,15973.09,15564.458,4.298,0.049,-0.681,-1.951,0.058,551.014,431.694,0.517,-204.68,-511.588,-0.839,99,-301802.4436,-1608628.188,12922.79017,255.772354,246.2572603,2.807493196,-39.01842585
517137,Own1,0.547,0.605,15973.158,15564.658,4.293,0.05,-0.684,-1.955,0.059,550.796,431.518,0.517,-206.553,-510.599,-0.806,100,-307978.7787,-1624065.646,12897.47287,255.6680766,245.9707814,2.864788976,-39.19031319
517237,Own1,0.547,0.605,15973.237,15564.971,4.288,0.05,-0.687,-1.96,0.06,550.531,431.304,0.517,-208.821,-509.389,-0.781,100,-314274.5906,-1639628.893,12872.90569,255.5412847,245.6843026,2.864788976,-39.36220053
517337,Own1,0.547,0.605,15973.315,15565.591,4.283,0.051,-0.69,-1.965,0.061,550.262,431.087,0.517,-211.118,-508.151,-0.783,100,-320639.5321,-1655155.258,12849.10052,255.4127154,245.3978237,2.922084755,-39.53408786
517437,Own1,0.547,0.605,15973.409,15566.412,4.276,0.052,-0.692,-1.97,0.063,549.944,430.83,0.516,-213.834,-506.669,-0.826,100,-327074.487,-1670643.889,12825.23439,255.2604467,244.9967532,2.979380535,-39.64867942
517537,Own1,0.547,0.605,15973.48,15566.626,4.271,0.053,-0.693,-1.974,0.064,549.712,430.643,0.516,-215.8,-505.582,-0.89,100,-333592.2266,-1686087.348,12800.05761,255.1496519,244.7102743,3.036676314,-39.7059752
517637,Own1,0.547,0.605,15973.575,15566.747,4.265,0.054,-0.694,-1.979,0.065,549.429,430.414,0.516,-218.191,-504.246,-1.012,99,-340169.8906,-1701497.675,12772.93008,255.0139728,244.3664996,3.093972094,-39.76327098
517736,Own1,0.547,0.605,15973.684,15566.859,4.259,0.056,-0.694,-1.984,0.067,549.139,430.18,0.516,-220.615,-502.873,-1.186,100,-346753.9277,-1716713.584,12742.3924,254.8753312,244.0227249,3.208563653,-39.76327098
517836,Own1,0.547,0.605,15973.814,15566.989,4.253,0.058,-0.695,-1.989,0.069,548.842,429.94,0.515,-223.073,-501.462,-1.413,100,-353478.3547,-1732041.339,12706.24268,254.7331347,243.6789503,3.323155212,-39.82056676
517936,Own1,0.547,0.605,15973.968,15567.091,4.246,0.059,-0.695,-1.995,0.07,548.539,429.695,0.515,-225.56,-500.015,-1.693,100,-360277.7024,-1747326.087,12663.17392,254.5879758,243.2778798,3.380450991,-39.82056676
518036,Own1,0.547,0.605,15974.153,15567.077,4.24,0.061,-0.695,-2,0.071,548.23,429.447,0.515,-228.067,-498.536,-2.013,100,-367152.8548,-1762566.729,12611.57065,254.4410395,242.9341051,3.49504255,-39.82056676
518136,Own1,0.547,0.605,15974.372,15567.036,4.234,0.062,-0.696,-2.005,0.072,547.918,429.193,0.515,-230.582,-497.032,-2.352,99,-374104.4215,-1777762.292,12550.21367,254.2905482,242.5903305,3.55233833,-39.87786254
518235,Own1,0.547,0.605,15974.624,15566.862,4.229,0.063,-0.698,-2.011,0.073,547.601,428.937,0.514,-233.099,-495.505,-2.696,100,-381062.3641,-1792760.514,12479.24073,254.138872,242.3038516,3.609634109,-39.9924541
518335,Own1,0.547,0.605,15974.911,15566.732,4.223,0.063,-0.701,-2.016,0.073,547.281,428.679,0.514,-235.617,-493.956,-3.038,100,-388167.308,-1807863.69,12397.06565,253.9860108,241.9600769,3.609634109,-40.16434144
518435,Own1,0.547,0.605,15975.232,15566.602,4.217,0.064,-0.703,-2.021,0.073,546.959,428.417,0.514,-238.137,-492.386,-3.377,100,-395349.0015,-1822919.652,12304.46629,253.8307796,241.6163022,3.666929889,-40.278933
518535,Own1,0.547,0.605,15975.586,15566.487,4.211,0.065,-0.706,-2.027,0.073,546.633,428.152,0.513,-240.657,-490.794,-3.706,100,-402607.5055,-1837927.76,12201.53408,253.673771,241.2725275,3.724225668,-40.45082034
518635,Own1,0.547,0.605,15975.972,15566.266,4.206,0.065,-0.71,-2.032,0.073,546.306,427.886,0.513,-243.172,-489.184,-4.021,100,-409942.82,-1852887.343,12088.57382,253.5161699,240.9860486,3.724225668,-40.68000345
518735,Own1,0.547,0.605,15976.39,15566.515,4.2,0.066,-0.713,-2.038,0.073,545.976,427.619,0.513,-245.683,-487.557,-4.32,99,-417354.7927,-1867797.852,11966.01225,253.3579763,240.642274,3.781521448,-40.85189079
518834,Own1,0.547,0.604,15976.836,15567.472,4.195,0.066,-0.717,-2.043,0.073,545.645,427.35,0.512,-248.19,-485.911,-4.602,100,-424768.4165,-1882510.161,11835.6538,253.1985978,240.3557951,3.781521448,-41.08107391
518934,Own1,0.547,0.604,15977.31,15568.582,4.189,0.067,-0.72,-2.049,0.074,545.313,427.081,0.512,-250.697,-484.245,-4.872,100,-432333.3397,-1897320.909,11695.38314,253.0392192,240.0120204,3.838817227,-41.25296125
519034,Own1,0.547,0.604,15977.725,15569.537,4.184,0.067,-0.723,-2.053,0.074,545.034,426.852,0.512,-253.204,-482.559,-5.131,100,-439974.6772,-1912080.876,11546.88277,252.9035401,239.7255415,3.838817227,-41.42484859
519134,Own1,0.547,0.604,15978.335,15570.741,4.177,0.067,-0.727,-2.06,0.074,544.643,426.534,0.512,-255.711,-480.852,-5.379,100,-447692.429,-1926789.453,11390.48799,252.7151298,239.324471,3.838817227,-41.65403171
519234,Own1,0.547,0.604,15978.885,15571.689,4.171,0.068,-0.731,-2.065,0.074,544.306,426.26,0.511,-258.219,-479.124,-5.616,100,-455486.595,-1941446,11226.53408,252.5527888,238.9806963,3.896113007,-41.88321482
519334,Own1,0.547,0.604,15979.458,15572.511,4.166,0.068,-0.734,-2.071,0.074,543.967,425.983,0.511,-260.726,-477.376,-5.842,99,-463357.2059,-1956049.877,11055.35632,252.3886704,238.6942175,3.896113007,-42.05510216
519433,Own1,0.547,0.604,15980.053,15572.963,4.16,0.068,-0.738,-2.076,0.074,543.627,425.705,0.511,-263.232,-475.608,-6.054,100,-471224.7607,-1970454.969,10879.07065,252.2239594,238.3504428,3.896113007,-42.28428528
519533,Own1,0.547,0.604,15980.669,15573.395,4.154,0.069,-0.742,-2.082,0.074,543.286,425.428,0.51,-265.736,-473.819,-6.253,100,-479248.1697,-1984951.677,10694.54249,252.059841,238.0066681,3.953408786,-42.5134684
519633,Own1,0.547,0.604,15981.303,15573.858,4.148,0.069,-0.745,-2.088,0.074,542.943,425.149,0.51,-268.237,-472.012,-6.438,100,-487347.9014,-1999393.855,10503.94873,251.8945376,237.6628934,3.953408786,-42.68535574
519733,Own1,0.547,0.604,15981.956,15574.339,4.142,0.069,-0.749,-2.093,0.074,542.6,424.867,0.51,-270.736,-470.185,-6.609,100,-495523.8646,-2013780.956,10307.71611,251.7274568,237.3191187,3.953408786,-42.91453886
519833,Own1,0.547,0.604,15982.512,15574.761,4.137,0.069,-0.752,-2.098,0.074,542.314,424.635,0.509,-273.231,-468.339,-6.764,99,-503775.9982,-2028112.369,10106.27134,251.5900002,237.0326398,3.953408786,-43.08642619
519932,Own1,0.547,0.604,15983.308,15575.372,4.13,0.069,-0.756,-2.105,0.074,541.912,424.306,0.509,-275.723,-466.474,-6.907,100,-512020.8986,-2042244.764,9902.163802,251.3950725,236.6315694,3.953408786,-43.31560931
520032,Own1,0.547,0.604,15984.005,15576.216,4.125,0.069,-0.759,-2.11,0.074,541.569,424.025,0.509,-278.213,-464.591,-7.035,100,-520425.0378,-2056463.064,9691.635881,251.2285841,236.3450905,3.953408786,-43.48749665
520132,Own1,0.547,0.604,15984.714,15577.25,4.119,0.069,-0.763,-2.116,0.073,541.227,423.744,0.508,-280.687,-462.7,-7.133,100,-528905.0732,-2070623.97,9477.206474,251.0620958,236.0013158,3.953408786,-43.71667977
520232,Own1,0.547,0.604,15985.311,15578.052,4.115,0.068,-0.766,-2.121,0.072,540.945,423.514,0.508,-282.725,-461.126,-7.175,100,-537460.5169,-2084727.238,9259.78999,250.9258241,235.7721327,3.896113007,-43.88856711
520332,Own1,0.547,0.604,15986.148,15579.07,4.109,0.067,-0.77,-2.127,0.071,540.555,423.195,0.508,-285.53,-458.935,-7.16,99,-546078.0797,-2098782.529,9041.093331,250.7368213,235.428358,3.838817227,-44.11775023
520431,Own1,0.547,0.604,15986.86,15579.905,4.105,0.065,-0.774,-2.133,0.069,540.225,422.927,0.507,-287.887,-457.071,-7.076,100,-554694.1094,-2112631.153,8825.036272,250.5780353,235.1991749,3.724225668,-44.34693334
520531,Own1,0.547,0.604,15987.445,15580.598,4.101,0.064,-0.777,-2.137,0.068,539.954,422.704,0.507,-289.821,-455.528,-6.958,100,-563469.0118,-2126562.847,8609.357169,250.445911,234.9699918,3.666929889,-44.51882068
520631,Own1,0.547,0.604,15988.132,15581.407,4.096,0.063,-0.78,-2.143,0.067,539.634,422.444,0.507,-292.109,-453.687,-6.765,100,-572302.8633,-2140447.509,8397.27475,250.2918648,234.6835129,3.609634109,-44.69070802
520731,Own1,0.547,0.604,15988.905,15583.031,4.09,0.062,-0.784,-2.149,0.066,539.267,422.141,0.506,-294.741,-451.548,-6.48,100,-581206.4539,-2154276.057,8191.075043,250.1123418,234.3397382,3.55233833,-44.91989114
520831,Own1,0.547,0.604,15989.539,15584.736,4.085,0.061,-0.786,-2.154,0.066,538.956,421.888,0.506,-296.971,-449.716,-6.196,100,-590190.2688,-2168039.407,7993.562241,249.962443,234.0532593,3.49504255,-45.0344827
520931,Own1,0.547,0.604,15990.045,15586.25,4.081,0.06,-0.788,-2.159,0.066,538.699,421.679,0.506,-298.82,-448.184,-5.945,99,-599242.055,-2181746.918,7804.705864,249.8386136,233.8240762,3.437746771,-45.14907426
521030,Own1,0.547,0.604,15990.624,15587.859,4.075,0.06,-0.79,-2.164,0.066,538.393,421.428,0.506,-301.038,-446.332,-5.641,100,-608259.1179,-2195271.124,7625.312119,249.6898998,233.4803015,3.437746771,-45.26366582
521130,Own1,0.547,0.604,15991.262,15589.767,4.068,0.059,-0.792,-2.17,0.066,538.038,421.137,0.505,-303.634,-444.143,-5.302,100,-617434.8677,-2208875.489,7453.372348,249.5174865,233.0792311,3.380450991,-45.37825737
521230,Own1,0.547,0.604,15991.778,15591.637,4.063,0.059,-0.793,-2.176,0.067,537.733,420.888,0.505,-305.865,-442.243,-5.021,100,-626689.7446,-2222413.132,7291.765423,249.3699577,232.7927522,3.380450991,-45.43555315
521330,Own1,0.547,0.604,15992.187,15593.481,4.058,0.059,-0.794,-2.18,0.067,537.479,420.682,0.505,-307.719,-440.647,-4.786,100,-636012.6231,-2235892.862,7138.723482,249.2479057,232.5062733,3.380450991,-45.49284893
521430,Own1,0.547,0.604,15992.652,15595.532,4.052,0.059,-0.795,-2.186,0.068,537.173,420.432,0.505,-309.943,-438.714,-4.51,99,-645392.0123,-2249323.946,6992.844428,249.0997844,232.1624986,3.380450991,-45.55014471
521529,Own1,0.547,0.604,15993.161,15598.334,4.044,0.059,-0.795,-2.192,0.069,536.813,420.139,0.504,-312.555,-436.418,-4.223,100,-654744.7181,-2262562.39,6856.752621,248.9261862,231.7041324,3.380450991,-45.55014471
521629,Own1,0.547,0.604,15993.572,15601.12,4.038,0.06,-0.795,-2.198,0.07,536.502,419.885,0.504,-314.815,-434.408,-4.018,100,-664271.5103,-2275864.572,6728.034016,248.7756949,231.3603577,3.437746771,-45.55014471
521729,Own1,0.547,0.604,15993.901,15603.296,4.033,0.06,-0.795,-2.203,0.071,536.243,419.675,0.504,-316.71,-432.708,-3.872,100,-673867.1882,-2289105.489,6605.563887,248.651273,231.0738788,3.437746771,-45.55014471
521829,Own1,0.547,0.604,15994.28,15605.39,4.027,0.06,-0.795,-2.208,0.072,535.931,419.423,0.503,-318.987,-430.646,-3.712,100,-683520.6264,-2302294.589,6487.543892,248.5019667,230.7301041,3.437746771,-45.55014471
521929,Own1,0.547,0.604,15994.643,15606.964,4.021,0.06,-0.795,-2.214,0.072,535.619,419.17,0.503,-321.63,-428.223,-3.527,100,-693243.4684,-2315420.839,6374.400756,248.3520679,230.3863294,3.437746771,-45.55014471
522029,Own1,0.547,0.604,15995.047,15608.097,4.014,0.059,-0.795,-2.221,0.072,535.257,418.876,0.503,-323.876,-426.138,-3.359,99,-703046.87,-2328473.235,6266.896489,248.1778773,229.985259,3.380450991,-45.55014471
522128,Own1,0.547,0.604,15995.32,15608.779,4.009,0.059,-0.795,-2.225,0.072,535,418.668,0.502,-325.733,-424.397,-3.212,100,-712820.0119,-2341332.191,6165.536759,248.0546403,229.6987801,3.380450991,-45.55014471
522228,Own1,0.547,0.604,15995.632,15609.475,4.004,0.059,-0.795,-2.231,0.071,534.692,418.418,0.502,-327.946,-422.301,-3.027,100,-722748.4745,-2354267.968,6067.633809,247.906519,229.4123012,3.380450991,-45.55014471
522328,Own1,0.547,0.604,15995.926,15610.225,3.998,0.058,-0.795,-2.237,0.072,534.386,418.17,0.502,-330.144,-420.197,-2.838,100,-732744.3901,-2367139.859,5975.369727,247.7595826,229.0685265,3.323155212,-45.55014471
522428,Own1,0.547,0.604,15996.2,15610.941,3.992,0.058,-0.795,-2.242,0.072,534.081,417.922,0.502,-332.328,-418.083,-2.647,99,-742807.3016,-2379947.62,5888.866435,247.6126463,228.7247518,3.323155212,-45.55014471
522527,Own1,0.547,0.604,15996.455,15611.597,3.987,0.058,-0.795,-2.248,0.072,533.777,417.677,0.501,-334.501,-415.958,-2.454,100,-752835.4874,-2392563.511,5808.991709,247.4674874,228.4382729,3.323155212,-45.55014471
522627,Own1,0.547,0.604,15996.691,15612.186,3.981,0.057,-0.795,-2.254,0.072,533.474,417.432,0.501,-336.66,-413.822,-2.26,100,-763031.2018,-2405242.065,5734.19288,247.3223285,228.0944982,3.265859432,-45.55014471
522727,Own1,0.547,0.604,15996.907,15612.833,3.975,0.057,-0.795,-2.259,0.072,533.171,417.187,0.501,-338.81,-411.673,-2.069,100,-773292.7234,-2417855.513,5665.307242,247.1771696,227.7507236,3.265859432,-45.55014471
522827,Own1,0.547,0.604,15997.105,15614.168,3.969,0.057,-0.795,-2.265,0.073,532.868,416.942,0.501,-340.956,-409.505,-1.887,100,-783619.7778,-2430403.459,5602.243355,247.0320107,227.4069489,3.265859432,-45.55014471
522927,Own1,0.547,0.604,15997.285,15615.713,3.963,0.057,-0.795,-2.271,0.073,532.565,416.698,0.5,-343.096,-407.319,-1.715,100,-794012.2431,-2442885.323,5544.726896,246.8874442,227.0631742,3.265859432,-45.55014471
523027,Own1,0.547,0.604,15997.448,15617.028,3.956,0.058,-0.795,-2.277,0.074,532.261,416.453,0.5,-345.235,-405.108,-1.558,99,-804469.9363,-2455300.557,5492.45306,246.7422853,226.6621038,3.323155212,-45.55014471
523126,Own1,0.547,0.604,15997.621,15618.154,3.949,0.058,-0.796,-2.283,0.075,531.905,416.165,0.5,-347.739,-402.491,-1.409,100,-814887.5981,-2467524.921,5445.439527,246.5716496,226.2610333,3.323155212,-45.60744049
523226,Own1,0.547,0.604,15997.735,15618.857,3.943,0.058,-0.796,-2.288,0.076,531.649,415.958,0.499,-349.534,-400.594,-1.326,103,-825486.8118,-2479792.996,5402.492685,246.4490051,225.9172586,3.323155212,-45.60744049
523329,Own1,0.547,0.604,15997.864,15619.499,3.937,0.059,-0.796,-2.294,0.077,531.34,415.71,0.499,-351.696,-398.285,-1.254,100,-836460.3554,-2492369.557,5360.863204,246.3020688,225.5734839,3.380450991,-45.60744049
523429,Own1,0.547,0.604,15997.987,15619.926,3.93,0.059,-0.796,-2.3,0.078,531.029,415.459,0.499,-353.863,-395.944,-1.208,100,-847180.1798,-2504509.431,5322.640819,246.1533549,225.1724135,3.380450991,-45.60744049
523529,Own1,0.547,0.604,15998.106,15619.899,3.924,0.06,-0.796,-2.306,0.078,530.717,415.207,0.498,-356.388,-393.181,-1.177,100,-857966.0552,-2516577.951,5285.820532,246.0040486,224.8286388,3.437746771,-45.60744049
523629,Own1,0.547,0.604,15998.223,15619.683,3.917,0.06,-0.796,-2.312,0.079,530.403,414.955,0.498,-358.186,-391.189,-1.162,100,-868828.8936,-2528562.254,5249.945135,245.8547424,224.4275684,3.437746771,-45.60744049
523729,Own1,0.547,0.604,15998.339,15619.453,3.911,0.06,-0.796,-2.318,0.079,530.089,414.702,0.498,-360.335,-388.783,-1.15,99,-879746.5356,-2540485.839,5214.526945,245.7048436,224.0837937,3.437746771,-45.60744049
523828,Own1,0.547,0.604,15998.453,15619.178,3.905,0.06,-0.796,-2.324,0.079,529.775,414.449,0.498,-362.471,-386.361,-1.142,100,-890619.8485,-2552217.587,5179.825043,245.5549448,223.740019,3.437746771,-45.60744049
523928,Own1,0.547,0.604,15998.567,15618.827,3.899,0.061,-0.796,-2.33,0.08,529.46,414.195,0.497,-364.596,-383.922,-1.137,100,-901668.0989,-2563994.013,5145.016459,245.4044535,223.3962443,3.49504255,-45.60744049
524028,Own1,0.547,0.604,15998.681,15618.535,3.892,0.061,-0.796,-2.336,0.08,529.145,413.942,0.497,-366.709,-381.468,-1.137,100,-912781.1202,-2575696.098,5110.360278,245.2545547,222.9951739,3.49504255,-45.60744049
524128,Own1,0.547,0.604,15998.794,15618.355,3.886,0.061,-0.796,-2.343,0.08,528.829,413.688,0.497,-368.809,-378.998,-1.139,100,-923958.5464,-2587323.384,5075.704097,245.1040635,222.6513992,3.49504255,-45.60744049
524228,Own1,0.547,0.604,15998.909,15618.226,3.88,0.061,-0.796,-2.349,0.08,528.514,413.434,0.496,-370.897,-376.512,-1.145,99,-935199.9814,-2598875.384,5040.986954,244.9535722,222.3076245,3.49504255,-45.60744049
524327,Own1,0.547,0.604,15999.023,15617.763,3.873,0.061,-0.796,-2.355,0.081,528.198,413.18,0.496,-372.972,-374.011,-1.153,100,-946392.0087,-2610236.847,5006.43593,244.8030809,221.9065541,3.49504255,-45.60744049
524427,Own1,0.547,0.604,15999.139,15617.113,3.867,0.061,-0.797,-2.361,0.081,527.882,412.926,0.496,-375.032,-371.496,-1.162,100,-957760.3335,-2621636.841,4971.292063,244.6525897,221.5627794,3.49504255,-45.66473627
524527,Own1,0.547,0.604,15999.256,15616.515,3.861,0.062,-0.797,-2.367,0.081,527.566,412.671,0.496,-377.077,-368.969,-1.171,100,-969191.4478,-2632960.176,4935.873872,244.5015059,221.2190047,3.55233833,-45.66473627
524627,Own1,0.547,0.604,15999.373,15615.841,3.855,0.062,-0.797,-2.373,0.081,527.25,412.417,0.495,-379.107,-366.428,-1.179,100,-980684.8945,-2644206.488,4900.181358,244.3510146,220.87523,3.55233833,-45.66473627
524727,Own1,0.547,0.604,15999.492,15614.921,3.848,0.062,-0.797,-2.379,0.081,526.935,412.163,0.495,-381.122,-363.875,-1.187,99,-992240.2164,-2655375.35,4864.245001,244.2005234,220.4741596,3.55233833,-45.66473627
524826,Own1,0.547,0.604,15999.611,15614.099,3.842,0.062,-0.797,-2.385,0.081,526.619,411.909,0.495,-383.12,-361.311,-1.194,100,-1003740.789,-2666355.484,4828.426603,244.0500321,220.1303849,3.55233833,-45.66473627
524926,Own1,0.547,0.604,15999.73,15613.324,3.836,0.062,-0.797,-2.392,0.081,526.304,411.656,0.494,-385.103,-358.734,-1.2,100,-1015418.428,-2677368.377,4792.033041,243.9001333,219.7866102,3.55233833,-45.66473627
525026,Own1,0.547,0.604,15999.851,15612.499,3.83,0.062,-0.797,-2.398,0.082,525.988,411.402,0.494,-387.068,-356.147,-1.204,100,-1027156.511,-2688302.723,4755.456596,243.749642,219.4428355,3.55233833,-45.66473627
525126,Own1,0.547,0.604,15999.951,15611.837,3.825,0.062,-0.797,-2.403,0.082,525.726,411.19,0.494,-388.694,-353.981,-1.206,100,-1038954.487,-2699158.215,4718.75823,243.6240352,219.1563566,3.55233833,-45.66473627
525226,Own1,0.547,0.604,16000.092,15611.071,3.817,0.062,-0.797,-2.41,0.082,525.357,410.894,0.493,-390.954,-350.933,-1.212,100,-1050802.024,-2709947.687,4681.998903,243.4486595,218.6979904,3.55233833,-45.66473627
525326,Own1,0.547,0.604,16000.214,15610.375,3.811,0.063,-0.798,-2.416,0.082,525.041,410.64,0.493,-392.876,-348.303,-1.221,99,-1062718.447,-2720644.255,4645.056693,243.2981682,218.3542157,3.609634109,-45.72203205
525425,Own1,0.547,0.604,16000.336,15609.595,3.804,0.063,-0.798,-2.422,0.083,524.725,410.385,0.493,-394.786,-345.657,-1.236,100,-1074573.703,-2731154.496,4608.212326,243.1470845,217.9531453,3.609634109,-45.72203205
525525,Own1,0.547,0.604,16000.44,15608.919,3.799,0.063,-0.798,-2.428,0.083,524.46,410.172,0.493,-396.368,-343.438,-1.252,100,-1086606.926,-2741690.249,4570.538588,243.0208851,217.6666664,3.609634109,-45.72203205
525625,Own1,0.547,0.604,16000.566,15608.273,3.793,0.063,-0.798,-2.434,0.083,524.143,409.917,0.492,-398.566,-340.314,-1.279,100,-1098688.37,-2752158.367,4532.377164,242.8698014,217.3228917,3.609634109,-45.72203205
525725,Own1,0.547,0.604,16000.717,15607.551,3.785,0.063,-0.798,-2.441,0.083,523.771,409.618,0.492,-400.434,-337.621,-1.305,100,-1110836.809,-2762531.263,4493.39277,242.6926482,216.8645255,3.609634109,-45.72203205
525825,Own1,0.547,0.604,16000.849,15607.068,3.779,0.064,-0.798,-2.447,0.084,523.453,409.362,0.492,-402.288,-334.912,-1.334,99,-1123042.186,-2772822.077,4453.615886,242.540972,216.5207508,3.666929889,-45.72203205
525924,Own1,0.547,0.604,16000.961,15606.839,3.773,0.064,-0.798,-2.453,0.084,523.188,409.148,0.491,-403.822,-332.643,-1.362,100,-1135181.455,-2782928.236,4413.36168,242.4141801,216.1769761,3.666929889,-45.72203205
526024,Own1,0.547,0.604,16001.099,15606.609,3.767,0.064,-0.798,-2.459,0.084,522.869,408.892,0.491,-405.653,-329.903,-1.403,100,-1147490.099,-2793067.318,4371.847415,242.2625039,215.8332014,3.666929889,-45.72203205
526124,Own1,0.547,0.604,16001.266,15606.105,3.759,0.065,-0.799,-2.466,0.085,522.497,408.593,0.491,-407.771,-326.686,-1.456,100,-1159854.553,-2803122.884,4329.083455,242.0853508,215.3748352,3.724225668,-45.77932783
526224,Own1,0.547,0.604,16001.389,15605.626,3.754,0.065,-0.799,-2.471,0.085,522.231,408.378,0.491,-409.271,-324.376,-1.496,100,-1172283.564,-2813080.394,4284.704036,241.9579665,215.0883563,3.724225668,-45.77932783
526324,Own1,0.547,0.604,16001.541,15605.063,3.747,0.065,-0.799,-2.478,0.085,521.912,408.121,0.49,-411.057,-321.593,-1.546,99,-1184758.296,-2822967.495,4239.105401,241.8056977,214.6872858,3.724225668,-45.77932783
526423,Own1,0.547,0.604,16001.698,15604.571,3.741,0.065,-0.799,-2.484,0.085,521.593,407.865,0.49,-412.825,-318.798,-1.595,100,-1197162.174,-2832671.746,4192.453975,241.6540215,214.3435112,3.724225668,-45.77932783
526523,Own1,0.547,0.604,16001.888,15603.903,3.733,0.065,-0.799,-2.491,0.085,521.222,407.566,0.49,-414.866,-315.525,-1.65,100,-1209745.233,-2842388.827,4143.837783,241.4768684,213.8851449,3.724225668,-45.77932783
526623,Own1,0.547,0.604,16002.026,15603.252,3.728,0.066,-0.799,-2.497,0.085,520.958,407.353,0.489,-416.307,-313.182,-1.685,100,-1222390.502,-2852006.146,4093.545172,241.350669,213.598666,3.781521448,-45.77932783
526723,Own1,0.547,0.604,16002.197,15602.606,3.722,0.066,-0.799,-2.503,0.085,520.641,407.099,0.489,-418.018,-310.364,-1.722,100,-1235079.694,-2861552.05,4042.185747,241.2001777,213.2548913,3.781521448,-45.77932783
526823,Own1,0.547,0.604,16002.371,15601.828,3.716,0.066,-0.799,-2.509,0.085,520.326,406.845,0.489,-419.708,-307.542,-1.752,100,-1247821.037,-2871012.059,3989.698549,241.0496865,212.9111167,3.781521448,-45.77932783
526923,Own1,0.547,0.604,16002.576,15600.632,3.708,0.066,-0.799,-2.517,0.085,519.961,406.551,0.488,-421.654,-304.244,-1.777,99,-1260613.893,-2880386.053,3936.29694,240.8754958,212.4527504,3.781521448,-45.77932783
527022,Own1,0.547,0.604,16002.725,15599.554,3.703,0.066,-0.8,-2.522,0.085,519.701,406.342,0.488,-423.026,-301.886,-1.789,100,-1273337.541,-2889566.789,3882.674957,240.7516664,212.1662715,3.781521448,-45.83662361
527122,Own1,0.547,0.604,16002.904,15598.492,3.697,0.066,-0.8,-2.528,0.085,519.39,406.091,0.488,-424.653,-299.052,-1.796,100,-1286231.53,-2898768.386,3828.145574,240.6029526,211.8224969,3.781521448,-45.83662361
527222,Own1,0.547,0.604,16003.084,15597.612,3.691,0.065,-0.8,-2.534,0.085,519.08,405.841,0.488,-426.259,-296.216,-1.795,100,-1299175.111,-2907883.602,3773.402829,240.4548312,211.4787222,3.724225668,-45.83662361
527322,Own1,0.547,0.604,16003.293,15596.535,3.684,0.065,-0.8,-2.542,0.085,518.721,405.553,0.487,-428.105,-292.907,-1.78,100,-1312167.644,-2916912.375,3718.690563,240.2841955,211.0776517,3.724225668,-45.83662361
527422,Own1,0.547,0.604,16003.44,15595.616,3.679,0.065,-0.8,-2.547,0.084,518.469,405.35,0.487,-429.405,-290.549,-1.756,99,-1325216.443,-2925840.289,3664.435504,240.1639209,210.7911728,3.724225668,-45.83662361
527521,Own1,0.547,0.604,16003.614,15594.938,3.673,0.065,-0.8,-2.553,0.084,518.175,405.113,0.487,-430.949,-287.725,-1.716,100,-1338173.982,-2934607.77,3611.447208,240.0235019,210.4473982,3.724225668,-45.83662361
527621,Own1,0.547,0.604,16003.783,15594.774,3.667,0.064,-0.8,-2.559,0.084,517.891,404.885,0.486,-432.478,-284.906,-1.665,100,-1351309.467,-2943377.734,3559.142892,239.8884153,210.1036235,3.666929889,-45.83662361
527721,Own1,0.547,0.604,16003.973,15594.64,3.66,0.064,-0.8,-2.566,0.084,517.575,404.63,0.486,-434.248,-281.62,-1.597,100,-1364491.557,-2952061.775,3508.393075,239.7373315,209.702553,3.666929889,-45.83662361
527821,Own1,0.547,0.604,16004.104,15594.532,3.655,0.064,-0.8,-2.571,0.084,517.36,404.457,0.486,-435.506,-279.275,-1.545,100,-1377727.597,-2960645.657,3459.715923,239.6348316,209.4160741,3.666929889,-45.83662361
527921,Own1,0.547,0.604,16004.256,15594.422,3.648,0.064,-0.8,-2.578,0.084,517.114,404.259,0.486,-437.007,-276.46,-1.48,100,-1391001.981,-2969158.062,3412.62375,239.5175195,209.0150037,3.666929889,-45.83662361
528021,Own1,0.547,0.604,16004.4,15594.345,3.642,0.064,-0.8,-2.584,0.083,516.881,404.071,0.485,-438.5,-273.646,-1.412,99,-1404322.117,-2977584.666,3367.512802,239.4061322,208.671229,3.666929889,-45.83662361
528120,Own1,0.547,0.604,16004.56,15594.459,3.635,0.064,-0.8,-2.591,0.083,516.627,403.867,0.485,-440.234,-270.363,-1.329,100,-1417554.103,-2985842.089,3324.904901,239.2852652,208.2701585,3.666929889,-45.83662361
528220,Own1,0.547,0.604,16004.668,15594.564,3.63,0.063,-0.8,-2.596,0.083,516.46,403.732,0.485,-441.47,-268.019,-1.268,100,-1430972.598,-2994082.853,3284.396489,239.2052797,207.9836796,3.609634109,-45.83662361
528320,Own1,0.547,0.604,16004.791,15594.687,3.624,0.063,-0.8,-2.602,0.083,516.276,403.584,0.485,-442.951,-265.206,-1.197,100,-1444428.767,-3002252.172,3245.747379,239.1175919,207.639905,3.609634109,-45.83662361
528420,Own1,0.547,0.604,16004.907,15594.802,3.618,0.063,-0.8,-2.608,0.083,516.107,403.447,0.485,-444.426,-262.395,-1.121,100,-1457930.078,-3010335.749,3209.262375,239.0364214,207.2961303,3.609634109,-45.83662361
528520,Own1,0.547,0.604,16005.015,15594.91,3.613,0.062,-0.8,-2.614,0.082,515.953,403.323,0.485,-445.887,-259.599,-1.026,100,-1471476.347,-3018333.646,3175.09388,238.9629532,207.0096514,3.55233833,-45.83662361
528620,Own1,0.547,0.604,16005.111,15595.007,3.608,0.061,-0.8,-2.62,0.081,515.812,403.21,0.484,-447.326,-256.83,-0.899,99,-1485067.148,-3026246.319,3143.821019,238.8960024,206.7231725,3.49504255,-45.83662361
528719,Own1,0.547,0.604,16005.193,15595.088,3.602,0.06,-0.8,-2.626,0.08,515.684,403.106,0.484,-448.74,-254.091,-0.734,100,-1498565.464,-3033996.31,3116.693185,238.8343839,206.3793978,3.437746771,-45.83662361
528819,Own1,0.547,0.604,16005.257,15595.152,3.597,0.059,-0.8,-2.632,0.078,515.567,403.012,0.484,-450.129,-251.382,-0.533,100,-1512243.225,-3041741.098,3094.320593,238.7786903,206.0929189,3.380450991,-45.83662361
528919,Own1,0.547,0.604,16005.299,15595.194,3.592,0.057,-0.8,-2.638,0.077,515.461,402.927,0.484,-451.497,-248.698,-0.301,100,-1525963.324,-3049403.315,3078.074555,238.728329,205.80644,3.265859432,-45.83662361
529019,Own1,0.547,0.604,16005.316,15595.211,3.587,0.056,-0.8,-2.644,0.077,515.365,402.85,0.484,-452.845,-246.035,-0.042,100,-1539725.12,-3056983.722,3068.899963,238.6827077,205.5199611,3.208563653,-45.83662361
529119,Own1,0.547,0.604,16005.307,15595.198,3.582,0.055,-0.8,-2.65,0.076,515.281,402.782,0.484,-454.176,-243.391,0.24,100,-1553528.004,-3064482.96,3067.619788,238.6424187,205.2334822,3.151267873,-45.83662361
529219,Own1,0.547,0.604,16005.268,15594.846,3.577,0.054,-0.8,-2.655,0.075,515.208,402.724,0.484,-455.492,-240.762,0.542,99,-1567371.456,-3071901.608,3074.935077,238.6080545,204.9470033,3.093972094,-45.83662361
529318,Own1,0.547,0.604,16005.212,15594.4,3.572,0.053,-0.8,-2.66,0.075,515.155,402.681,0.484,-456.577,-238.582,0.809,100,-1581116.186,-3079166.738,3091.290234,238.5825776,204.6605244,3.036676314,-45.83662361
529418,Own1,0.547,0.604,16005.094,15593.812,3.566,0.052,-0.8,-2.667,0.074,515.092,402.631,0.484,-458.077,-235.55,1.207,100,-1595032.822,-3086438.805,3115.948854,238.5529534,204.3167497,2.979380535,-45.83662361
529518,Own1,0.547,0.604,16004.955,15593.265,3.561,0.051,-0.8,-2.672,0.074,515.047,402.596,0.484,-459.345,-232.967,1.571,100,-1608995.179,-3093618.457,3152.738661,238.5322164,204.0302708,2.922084755,-45.83662361
529618,Own1,0.547,0.604,16004.78,15592.651,3.555,0.051,-0.8,-2.678,0.075,515.008,402.566,0.484,-460.607,-230.372,1.927,100,-1622996.184,-3100719.377,3200.623324,238.5144418,203.6864962,2.922084755,-45.83662361
529718,Own1,0.547,0.604,16004.608,15592.116,3.549,0.052,-0.8,-2.683,0.076,514.978,402.542,0.484,-461.662,-228.179,2.197,99,-1637035.657,-3107741.201,3259.358998,238.5002222,203.3427215,2.979380535,-45.83662361
529817,Own1,0.547,0.604,16004.333,15591.443,3.54,0.053,-0.798,-2.689,0.079,514.937,402.511,0.484,-463.156,-225.035,2.5,100,-1650966.569,-3114626.632,3325.654718,238.4818551,202.8270595,3.036676314,-45.72203205
529917,Own1,0.547,0.604,16004.074,15590.842,3.533,0.054,-0.795,-2.695,0.081,514.907,402.488,0.484,-464.459,-222.261,2.671,100,-1665083.736,-3121485.782,3401.855645,238.468228,202.425989,3.093972094,-45.55014471
530017,Own1,0.547,0.604,16003.802,15589.951,3.526,0.056,-0.791,-2.701,0.083,514.884,402.472,0.484,-465.783,-219.419,2.751,100,-1679240.618,-3128260.38,3483.268715,238.4587482,202.0249186,3.208563653,-45.32096159
530117,Own1,0.547,0.604,16003.572,15589.123,3.52,0.056,-0.786,-2.706,0.084,514.871,402.463,0.484,-466.89,-217.022,2.766,100,-1693437.857,-3134948.352,3567.120215,238.4534158,201.6811439,3.208563653,-45.0344827
530217,Own1,0.547,0.604,16003.25,15588.012,3.514,0.057,-0.778,-2.714,0.084,514.864,402.459,0.484,-468.422,-213.679,2.755,99,-1707668.837,-3141563.263,3651.42892,238.4510459,201.3373692,3.265859432,-44.57611646
530316,Own1,0.547,0.604,16002.975,15586.854,3.508,0.057,-0.771,-2.72,0.083,514.87,402.465,0.484,-469.707,-210.852,2.741,100,-1721803.736,-3148011.148,3734.562607,238.4546008,200.9935945,3.265859432,-44.175046
530416,Own1,0.547,0.604,16002.702,15585.505,3.503,0.057,-0.763,-2.726,0.082,514.883,402.478,0.484,-470.962,-208.068,2.734,100,-1736120.58,-3154437.995,3818.109303,238.4623031,200.7071156,3.265859432,-43.71667977
530516,Own1,0.547,0.604,16002.474,15584.396,3.499,0.056,-0.757,-2.73,0.082,514.9,402.492,0.484,-471.986,-205.776,2.729,100,-1750475.676,-3160779.985,3901.442636,238.4705979,200.4779325,3.208563653,-43.37290509
530616,Own1,0.547,0.604,16002.156,15583.08,3.493,0.057,-0.749,-2.737,0.081,514.928,402.518,0.484,-473.389,-202.6,2.716,100,-1764861.984,-3167052.114,3984.623567,238.4860025,200.1341578,3.265859432,-42.91453886
530716,Own1,0.547,0.604,16001.886,15581.694,3.488,0.057,-0.742,-2.743,0.081,514.956,402.541,0.484,-474.566,-199.9,2.693,100,-1779291.056,-3173227.437,4067.408254,238.4996297,199.8476789,3.265859432,-42.5134684
530816,Own1,0.547,0.604,16001.618,15579.734,3.483,0.057,-0.735,-2.749,0.081,514.985,402.567,0.484,-475.721,-197.212,2.655,99,-1793756.004,-3179320.463,4149.491892,238.5150343,199.5612,3.265859432,-42.11239794
530915,Own1,0.547,0.604,16001.399,15578.177,3.479,0.057,-0.727,-2.753,0.08,515.011,402.588,0.484,-476.665,-194.986,2.611,100,-1808111.155,-3185271.447,4229.608022,238.5274765,199.3320169,3.265859432,-41.65403171
531015,Own1,0.547,0.604,16001.141,15576.791,3.474,0.058,-0.715,-2.759,0.08,515.042,402.616,0.484,-477.951,-191.913,2.528,100,-1822640.081,-3191214.692,4309.19227,238.5440661,199.045538,3.323155212,-40.96648235
531115,Own1,0.547,0.604,16000.85,15574.934,3.469,0.058,-0.698,-2.765,0.079,515.081,402.648,0.484,-479.015,-189.334,2.433,110,-1837208.204,-3197064.272,4386.246647,238.5630256,198.7590591,3.323155212,-39.9924541
531225,Own1,0.547,0.604,16000.652,15573.328,3.466,0.059,-0.684,-2.77,0.079,515.109,402.672,0.484,-479.872,-187.23,2.333,100,-1853268.815,-3203412.339,4467.821263,238.5772453,198.5871718,3.380450991,-39.19031319
531325,Own1,0.547,0.604,16000.425,15571.722,3.462,0.059,-0.667,-2.775,0.079,515.144,402.702,0.484,-481.029,-184.352,2.157,100,-1867895.491,-3209119.179,4538.931968,238.5950198,198.3579887,3.380450991,-38.21628494
531425,Own1,0.547,0.604,16000.183,15570.317,3.457,0.06,-0.646,-2.781,0.078,515.183,402.735,0.484,-481.981,-181.946,1.969,100,-1882557.433,-3214738.296,4604.678127,238.6145718,198.0715098,3.437746771,-37.01307357
531525,Own1,0.547,0.604,15999.997,15568.628,3.454,0.061,-0.628,-2.786,0.078,515.215,402.762,0.484,-482.897,-179.596,1.742,99,-1897248.393,-3220284.078,4664.693977,238.630569,197.8996224,3.49504255,-35.98174953
531624,Own1,0.547,0.604,15999.861,15566.828,3.451,0.062,-0.613,-2.79,0.078,515.241,402.783,0.484,-483.634,-177.678,1.521,100,-1911820.084,-3225703.489,4717.259815,238.6430111,197.7277351,3.55233833,-35.12231284
531724,Own1,0.547,0.604,15999.723,15564.544,3.447,0.064,-0.593,-2.794,0.078,515.269,402.807,0.484,-484.486,-175.427,1.215,100,-1926561.427,-3231119.18,4763.620458,238.6572308,197.498552,3.666929889,-33.97639725
531824,Own1,0.547,0.604,15999.605,15561.883,3.443,0.065,-0.569,-2.799,0.078,515.299,402.832,0.484,-485.435,-172.875,0.797,100,-1941328.74,-3236466.26,4800.654109,238.6720429,197.2693689,3.724225668,-32.60129854
531924,Own1,0.547,0.604,15999.546,15558.914,3.44,0.067,-0.546,-2.804,0.078,515.321,402.851,0.484,-486.207,-170.759,0.381,100,-1956124.979,-3241735.554,4824.946964,238.6833001,197.0974815,3.838817227,-31.28349561
532024,Own1,0.547,0.604,15999.53,15556.366,3.438,0.068,-0.526,-2.807,0.078,515.337,402.864,0.484,-486.82,-169.052,-0.006,99,-1970944.748,-3246940.352,4836.559985,238.6910025,196.98289,3.896113007,-30.13758002
532123,Own1,0.547,0.604,15999.556,15554.214,3.435,0.07,-0.502,-2.811,0.078,515.353,402.877,0.484,-487.519,-167.076,-0.518,100,-1985634.818,-3252041.592,4836.378932,238.6987048,196.8110026,4.010704566,-28.76248132
532223,Own1,0.547,0.604,15999.654,15552.584,3.433,0.071,-0.473,-2.816,0.077,515.37,402.89,0.484,-488.281,-164.882,-1.164,100,-2000494.578,-3257134.13,4820.5901,238.7064071,196.6964111,4.068000345,-27.10090371
532323,Own1,0.547,0.604,15999.799,15550.928,3.431,0.072,-0.448,-2.82,0.076,515.383,402.9,0.484,-488.888,-163.11,-1.736,100,-2015377.563,-3262159.795,4785.110949,238.7123319,196.5818195,4.125296125,-25.66850922
532423,Own1,0.547,0.604,15999.963,15548.773,3.43,0.073,-0.427,-2.822,0.075,515.394,402.909,0.484,-489.361,-161.716,-2.214,100,-2030279.051,-3267131.448,4732.197025,238.7176643,196.5245237,4.182591904,-24.46529785
532523,Own1,0.547,0.604,16000.212,15546.328,3.43,0.073,-0.402,-2.826,0.073,515.409,402.92,0.484,-489.889,-160.15,-2.762,99,-2045194.955,-3272060.612,4664.713485,238.7241816,196.5245237,4.182591904,-23.03290336
532622,Own1,0.547,0.604,16000.569,15544.276,3.429,0.072,-0.374,-2.829,0.07,515.431,402.935,0.484,-490.452,-158.476,-3.342,100,-2059977.634,-3276893.229,4581.368569,238.7330689,196.467228,4.125296125,-21.42862154
532722,Own1,0.547,0.604,16000.926,15543.137,3.428,0.072,-0.35,-2.832,0.068,515.452,402.95,0.484,-490.893,-157.167,-3.785,100,-2074926.793,-3281723.636,4479.50317,238.7419562,196.4099322,4.125296125,-20.05352283
532822,Own1,0.547,0.604,16001.255,15541.74,3.428,0.071,-0.329,-2.834,0.067,515.474,402.966,0.484,-491.234,-156.159,-4.12,100,-2089889.393,-3286514.144,4364.134967,238.751436,196.4099322,4.068000345,-18.85031146
532922,Own1,0.547,0.604,16001.686,15539.906,3.428,0.071,-0.305,-2.836,0.066,515.502,402.987,0.484,-491.613,-155.044,-4.497,100,-2104862.388,-3291273.929,4238.55584,238.7638781,196.4099322,4.068000345,-17.47521275
533022,Own1,0.547,0.604,16002.154,15538.308,3.427,0.071,-0.28,-2.838,0.064,515.532,403.008,0.484,-492.017,-153.861,-4.918,99,-2119846.934,-3295999.727,4101.485613,238.7763203,196.3526364,4.068000345,-16.04281826
533121,Own1,0.547,0.604,16002.658,15537.6,3.427,0.071,-0.256,-2.84,0.063,515.562,403.029,0.484,-492.28,-153.095,-5.206,100,-2134693.826,-3300642.57,3953.082175,238.7887625,196.3526364,4.068000345,-14.66771956
533221,Own1,0.547,0.604,16003.195,15537.542,3.427,0.071,-0.233,-2.842,0.062,515.593,403.051,0.484,-492.568,-152.259,-5.534,100,-2149698.703,-3305308.962,3794.401366,238.8017972,196.3526364,4.068000345,-13.34991663
533321,Own1,0.547,0.604,16003.764,15537.104,3.427,0.071,-0.211,-2.843,0.061,515.624,403.073,0.484,-492.827,-151.512,-5.834,100,-2164712.358,-3309949.873,3625.722994,238.8148319,196.3526364,4.068000345,-12.08940948
533421,Own1,0.547,0.604,16004.361,15535.887,3.427,0.07,-0.192,-2.845,0.059,515.656,403.094,0.484,-493.062,-150.844,-6.099,100,-2179733.908,-3314568.015,3447.900512,238.8272741,196.3526364,4.010704566,-11.00078967
533521,Own1,0.547,0.604,16004.982,15534.667,3.427,0.069,-0.175,-2.846,0.058,515.689,403.116,0.484,-493.277,-150.245,-6.322,100,-2194762.62,-3319165.796,3262.000732,238.8403088,196.3526364,3.953408786,-10.02676141
533621,Own1,0.547,0.604,16005.623,15534.254,3.426,0.069,-0.162,-2.847,0.057,515.724,403.141,0.484,-493.476,-149.702,-6.501,99,-2209797.886,-3323745.319,3069.303828,238.8551209,196.2953406,3.953408786,-9.281916281
533720,Own1,0.547,0.604,16006.281,15534.301,3.426,0.068,-0.151,-2.848,0.056,515.759,403.165,0.484,-493.662,-149.204,-6.636,100,-2224688.804,-3328262.662,2873.132468,238.8693405,196.2953406,3.896113007,-8.651662706
533820,Own1,0.546,0.604,16006.949,15534.45,3.426,0.067,-0.143,-2.849,0.055,515.796,403.192,0.484,-493.838,-148.744,-6.732,100,-2239735.805,-3332810.455,2670.864728,238.8853376,196.2953406,3.838817227,-8.19329647
533920,Own1,0.546,0.604,16007.626,15534.507,3.425,0.067,-0.136,-2.85,0.054,515.833,403.216,0.485,-494.005,-148.313,-6.801,100,-2254788.17,-3337344.228,2465.670873,238.8995573,196.2380448,3.838817227,-7.792226014
534020,Own1,0.546,0.604,16008.309,15534.582,3.425,0.066,-0.132,-2.851,0.054,515.872,403.243,0.485,-494.167,-147.904,-6.853,100,-2269845.625,-3341864.863,2258.373872,238.9155544,196.2380448,3.781521448,-7.563042896
534120,Own1,0.546,0.604,16008.996,15534.64,3.424,0.066,-0.129,-2.852,0.053,515.91,403.27,0.485,-494.325,-147.506,-6.894,90,-2284908.019,-3346373.032,2049.491892,238.9315515,196.1807491,3.781521448,-7.391155557
534210,Own1,0.546,0.604,16009.688,15534.764,3.424,0.066,-0.127,-2.852,0.053,515.948,403.296,0.485,-494.481,-147.116,-6.927,100,-2298468.507,-3350419.465,1860.373385,238.9469561,196.1807491,3.781521448,-7.276563998
534310,Own1,0.546,0.604,16010.381,15534.981,3.423,0.066,-0.126,-2.853,0.053,515.986,403.32,0.485,-494.635,-146.731,-6.947,109,-2313540.471,-3354903.616,1649.235857,238.9611758,196.1234533,3.781521448,-7.219268219
534419,Own1,0.546,0.604,16011.076,15535.407,3.422,0.065,-0.125,-2.854,0.052,516.026,403.348,0.485,-494.79,-146.348,-6.954,100,-2329974.029,-3359778.548,1418.43148,238.9777653,196.0661575,3.724225668,-7.161972439
534519,Own1,0.546,0.604,16011.772,15536.056,3.422,0.064,-0.122,-2.855,0.051,516.07,403.38,0.485,-494.946,-145.973,-6.947,100,-2345055.411,-3364239.29,1206.470983,238.9967249,196.0661575,3.666929889,-6.990085101
534619,Own1,0.546,0.604,16012.465,15536.744,3.422,0.063,-0.115,-2.856,0.05,516.117,403.412,0.485,-495.101,-145.618,-6.907,90,-2360141.549,-3368688.601,994.7238478,239.0156844,196.0661575,3.609634109,-6.589014644
534709,Own1,0.546,0.604,16013.151,15537.429,3.422,0.061,-0.106,-2.856,0.048,516.171,403.45,0.485,-495.253,-145.297,-6.799,100,-2373723.324,-3372683.242,805.2487198,239.0381988,196.0661575,3.49504255,-6.073352628
534809,Own1,0.546,0.604,16013.821,15538.1,3.422,0.058,-0.096,-2.857,0.046,516.232,403.497,0.485,-495.401,-145.019,-6.598,100,-2388818.819,-3377111.949,598.0126798,239.0660457,196.0661575,3.323155212,-5.500394833
534909,Own1,0.546,0.604,16014.467,15538.745,3.422,0.056,-0.083,-2.857,0.044,516.301,403.547,0.485,-495.544,-144.786,-6.297,109,-2403918.826,-3381532.181,396.9031943,239.0956699,196.0661575,3.208563653,-4.7555497
535018,Own1,0.546,0.604,16014.979,15539.257,3.423,0.055,-0.072,-2.858,0.043,516.361,403.59,0.485,-495.658,-144.625,-5.99,100,-2420382.583,-3386342.494,187.69416,239.1211468,196.1234533,3.151267873,-4.125296125
535118,Own1,0.546,0.604,16015.652,15540.308,3.423,0.054,-0.056,-2.858,0.043,516.449,403.658,0.485,-495.806,-144.447,-5.547,100,-2435490.423,-3390750.718,5.11673982,239.1614358,196.1234533,3.093972094,-3.208563653
